title,winery,grape,vintage,isblend,height,min-diam,max-diam,weight,rating-spectator,rating-advocate,rating-cellar,objectid,price,color,basecolor,latitude,longitude,location,filename,type,format,subregion,region,country,rating-avg
Francis Ford Coppola Diamond Collection Cabernet Sauvignon,Francis Coppola,Cabernet Sauvignon,2019,FALSE,4.45,1.91,2.06,29.4,,,86.8,CoppCabSauvCork01, $18.99 ,#ecd37b,#e2b2b0,38.6795595,-122.8923422,"Paso Robles, California, United States",CoppCabSauvCork01_0.jpg; CoppCabSauvCork01_1.jpg; CoppCabSauvCork01_2.jpg; CoppCabSauvCork01_3.jpg; CoppCabSauvCork01_top.jpg; CoppCabSauvCork01_base.jpg,Image;StillImage,image/jpeg,Paso Robles,California,United States,86.8
Barone Cornacchia Montepulciano d'Abruzzo,Barone Cornacchia,Montepulciano,2019,FALSE,,,,,,,87.3,BarCornMonteCork02, $17.99 ,,,42.811167,13.760694,"Torano Nuovo, Abruzzo, Italy",BarCornMonteCork02_0.jpg; BarCornMonteCork02_1.jpg; BarCornMonteCork02_2.jpg; BarCornMonteCork02_3.jpg; BarCornMonteCork02_top.jpg; BarCornMonteCork02_base.jpg,Image;StillImage,image/jpeg,Torano Nuovo,Abruzzo,Italy,87.3
La Marca Prosecco,La Marca Vini e Spumanti,Champagne,2020,FALSE,,,,,78,85,89,LaMarcaProCork03, $19.99 ,,,45.8083443,12.4964763,"Treviso, Veneto, Italy",LaMarcaProCork03_0.jpg; LaMarcaProCork03_1.jpg; LaMarcaProCork03_2.jpg; LaMarcaProCork03_3.jpg; LaMarcaProCork03_top.jpg; LaMarcaProCork03_base.jpg,Image;StillImage,image/jpeg,Treviso,Veneto,Italy,84.0
Ruffino Prosecco,Ruffino,Glera,2021,FALSE,,,,,,,86,RuffinoProCork04, $16.99 ,,,45.672523,12.5803158,"Treviso, Veneto, Italy",RuffinoProCork04_0.jpg; RuffinoProCork04_1.jpg; RuffinoProCork04_2.jpg; RuffinoProCork04_3.jpg; RuffinoProCork04_top.jpg; RuffinoProCork04_base.jpg,Image;StillImage,image/jpeg,Treviso,Veneto,Italy,86.0
Carlin de Paolo Barbera d'Asti,Carlin de Paolo,Barbera,2019,FALSE,,,,,,,89,CarlinBarbAstiCork05, $16.99 ,,,44.8496582,8.0250424,"Asti, Piedmont, Italy",CarlinBarbAstiCork05_0.jpg; CarlinBarbAstiCork05_1.jpg; CarlinBarbAstiCork05_2.jpg; CarlinBarbAstiCork05_3.jpg; CarlinBarbAstiCork05_top.jpg; CarlinBarbAstiCork05_base.jpg,Image;StillImage,image/jpeg,Asti,Piedmont,Italy,89.0
Juggernaut Cabernet Sauvignon,Juggernaut Wine Company,Cabernet Sauvignon,2017,FALSE,,,,,,,87.8,JuggCabSauvCork06, $19.99 ,,,38.3892459,-121.5435858,"Central Valley, California, United States",JuggCabSauvCork06_0.jpg; JuggCabSauvCork06_1.jpg; JuggCabSauvCork06_2.jpg; JuggCabSauvCork06_3.jpg; JuggCabSauvCork06_top.jpg; JuggCabSauvCork06_base.jpg,Image;StillImage,image/jpeg,Central Valley,California,United States,87.8
Juggernaut Pinot Noir,Juggernaut Wine Company,Pinot Noir,2019,FALSE,,,,,,,86.6,JuggPinNoirCork07, $19.99 ,,,38.4830002,-122.8260863,"Russian River Valley, California, United States",JuggPinNoirCork07_0.jpg; JuggPinNoirCork07_1.jpg; JuggPinNoirCork07_2.jpg; JuggPinNoirCork07_3.jpg; JuggPinNoirCork07_top.jpg; JuggPinNoirCork07_base.jpg,Image;StillImage,image/jpeg,Russian River Valley,California,United States,86.6
ROCK Valpolicella Ripasso,Cantina Valpantena,Corvina; Rondinella; Corvinone,2018,TRUE,,,,,87,85,,ROCKValRipCork08, $21.99 ,,,45.5483223,10.5938832,"Verona, Veneto, Italy",ROCKValRipCork08_0.jpg; ROCKValRipCork08_1.jpg; ROCKValRipCork08_2.jpg; ROCKValRipCork08_3.jpg; ROCKValRipCork08_top.jpg; ROCKValRipCork08_base.jpg,Image;StillImage,image/jpeg,Verona,Veneto,Italy,86.0
Riparosso Montepulciano D'Abruzzo 1,Illuminati Vini,Montepulciano,2018,FALSE,,,,,88,87,85,RipaMonteCork09, $14.99 ,,,42.842101,13.7958457,"Torano Nuovo, Abruzzo, Italy",RipaMonteCork09_0.jpg; RipaMonteCork09_1.jpg; RipaMonteCork09_2.jpg; RipaMonteCork09_3.jpg; RipaMonteCork09_top.jpg; RipaMonteCork09_base.jpg,Image;StillImage,image/jpeg,Torano Nuovo,Abruzzo,Italy,86.7
Riparosso Montepulciano D'Abruzzo 2,Illuminati Vini,Montepulciano,2018,FALSE,,,,,88,87,85,RipaMonteCork10, $14.99 ,,,42.842101,13.7958457,"Torano Nuovo, Abruzzo, Italy",RipaMonteCork10_0.jpg; RipaMonteCork10_1.jpg; RipaMonteCork10_2.jpg; RipaMonteCork10_3.jpg; RipaMonteCork10_top.jpg; RipaMonteCork10_base.jpg,Image;StillImage,image/jpeg,Torano Nuovo,Abruzzo,Italy,86.7
Riparosso Montepulciano D'Abruzzo 3,Illuminati Vini,Montepulciano,2018,FALSE,,,,,88,87,85,RipaMonteCork11, $14.99 ,,,42.842101,13.7958457,"Torano Nuovo, Abruzzo, Italy",RipaMonteCork11_0.jpg; RipaMonteCork11_1.jpg; RipaMonteCork11_2.jpg; RipaMonteCork11_3.jpg; RipaMonteCork11_top.jpg; RipaMonteCork11_base.jpg,Image;StillImage,image/jpeg,Torano Nuovo,Abruzzo,Italy,86.7
Decoy Cabernet Sauvignon 1,Duckhorn,Cabernet Sauvignon,2019,FALSE,,,,,88,,87,DecoyCabSauvCork12, $19.99 ,,,38.5284311,-122.4915541,"Mendocino County, California, United States",DecoyCabSauvCork12_0.jpg; DecoyCabSauvCork12_1.jpg; DecoyCabSauvCork12_2.jpg; DecoyCabSauvCork12_3.jpg; DecoyCabSauvCork12_top.jpg; DecoyCabSauvCork12_base.jpg,Image;StillImage,image/jpeg,Mendocino County,California,United States,87.5
Decoy Cabernet Sauvignon 2,Duckhorn,Cabernet Sauvignon,2019,FALSE,,,,,88,,87,DecoyCabSauvCork13, $19.99 ,,,38.5284311,-122.4915541,"Mendocino County, California, United States",DecoyCabSauvCork13_0.jpg; DecoyCabSauvCork13_1.jpg; DecoyCabSauvCork13_2.jpg; DecoyCabSauvCork13_3.jpg; DecoyCabSauvCork13_top.jpg; DecoyCabSauvCork13_base.jpg,Image;StillImage,image/jpeg,Mendocino County,California,United States,87.5
Decoy Pinot Noir,Duckhorn,Pinot Noir,2020,FALSE,,,,,87,88,87.1,DecoyPinNoirCork14, $19.99 ,,,38.5284311,-122.4915541,"Mendocino County, California, United States",DecoyPinNoirCork14_0.jpg; DecoyPinNoirCork14_1.jpg; DecoyPinNoirCork14_2.jpg; DecoyPinNoirCork14_3.jpg; DecoyPinNoirCork14_top.jpg; DecoyPinNoirCork14_base.jpg,Image;StillImage,image/jpeg,Mendocino County,California,United States,87.4
Bread and Butter Cabernet Sauvignon 1,Bread and Butter Wines,Cabernet Sauvignon,2020,FALSE,,,,,91,,84.2,BnbCabSauvCork15, $16.99 ,,,38.3485325,-122.2853538,"Napa Valley, California, United States",BnbCabSauvCork15_0.jpg; BnbCabSauvCork15_1.jpg; BnbCabSauvCork15_2.jpg; BnbCabSauvCork15_3.jpg; BnbCabSauvCork15_top.jpg; BnbCabSauvCork15_base.jpg,Image;StillImage,image/jpeg,Napa Valley,California,United States,87.6
Bread and Butter Cabernet Sauvignon 2,Bread and Butter Wines,Cabernet Sauvignon,2020,FALSE,,,,,91,,84.2,BnbCabSauvCork16, $16.99 ,,,38.3485325,-122.2853538,"Napa Valley, California, United States",BnbCabSauvCork16_0.jpg; BnbCabSauvCork16_1.jpg; BnbCabSauvCork16_2.jpg; BnbCabSauvCork16_3.jpg; BnbCabSauvCork16_top.jpg; BnbCabSauvCork16_base.jpg,Image;StillImage,image/jpeg,Napa Valley,California,United States,87.6
Bread and Butter Pinot Noir,Bread and Butter Wines,Pinot Noir,2020,FALSE,,,,,,,87,BnbPinNoirCork17, $14.99 ,,,38.3485325,-122.2853538,"Napa Valley, California, United States",BnbPinNoirCork17_0.jpg; BnbPinNoirCork17_1.jpg; BnbPinNoirCork17_2.jpg; BnbPinNoirCork17_3.jpg; BnbPinNoirCork17_top.jpg; BnbPinNoirCork17_base.jpg,Image;StillImage,image/jpeg,Napa Valley,California,United States,87.0
Substance Cabernet Sauvignon,House of Smith Wines,Cabernet Sauvignon,2019,FALSE,,,,,89,89,87.6,SubCabSauvCork18, $15.99 ,,,47.5463257,-122.3191109,"Seattle, Washington, United States",SubCabSauvCork18_0.jpg; SubCabSauvCork18_1.jpg; SubCabSauvCork18_2.jpg; SubCabSauvCork18_3.jpg; SubCabSauvCork18_top.jpg; SubCabSauvCork18_base.jpg,Image;StillImage,image/jpeg,Seattle,Washington,United States,88.5
Grayson Cellars Cabernet Sauvignon 1,Grayson Cellars,Cabernet Sauvignon,2018,FALSE,,,,,,,89,GrayCabSauvCork19, $11.99 ,,,37.9232816,-122.0742023,"California, United States",GrayCabSauvCork19_0.jpg; GrayCabSauvCork19_1.jpg; GrayCabSauvCork19_2.jpg; GrayCabSauvCork19_3.jpg; GrayCabSauvCork19_top.jpg; GrayCabSauvCork19_base.jpg,Image;StillImage,image/jpeg,,California,United States,89.0
Grayson Cellars Cabernet Sauvignon 2,Grayson Cellars,Cabernet Sauvignon,2018,FALSE,,,,,,,89,GrayCabSauvCork20, $11.99 ,,,37.9232816,-122.0742023,"California, United States",GrayCabSauvCork20_0.jpg; GrayCabSauvCork20_1.jpg; GrayCabSauvCork20_2.jpg; GrayCabSauvCork20_3.jpg; GrayCabSauvCork20_top.jpg; GrayCabSauvCork20_base.jpg,Image;StillImage,image/jpeg,,California,United States,89.0
Tedeschi San Rocco Valpolicella Ripasso,Tedeschi Wines,Corvina; Corvinone; Rondinella,2018,TRUE,,,,,90,90,88.2,TedValRipCork21, $22.99 ,,,45.7842498,10.7711122,"Verona, Veneto, Italy",TedValRipCork21_0.jpg; TedValRipCork21_1.jpg; TedValRipCork21_2.jpg; TedValRipCork21_3.jpg; TedValRipCork21_top.jpg; TedValRipCork21_base.jpg,Image;StillImage,image/jpeg,Verona,Veneto,Italy,89.4
Santa Margherita Chianti Classico Riserva,Santa Margherita,Sangiovese,2017,TRUE,,,,,,,88.8,SanMargChiantiCork22, $24.99 ,,,45.7731357,12.8984216,"Veneto, Italy",SanMargChiantiCork22_0.jpg; SanMargChiantiCork22_1.jpg; SanMargChiantiCork22_2.jpg; SanMargChiantiCork22_3.jpg; SanMargChiantiCork22_top.jpg; SanMargChiantiCork22_base.jpg,Image;StillImage,image/jpeg,,Veneto,Italy,88.8
Bosco Nestore Montepulciano d'Abruzzo,Bosco Nestore e Co.,Montepulciano,2018,FALSE,,,,,82,,,BoscoMonteCork23, $18.99 ,,,42.3474433,14.0112341,"Pescara, Abruzzo, Italy",BoscoMonteCork23_0.jpg; BoscoMonteCork23_1.jpg; BoscoMonteCork23_2.jpg; BoscoMonteCork23_3.jpg; BoscoMonteCork23_top.jpg; BoscoMonteCork23_base.jpg,Image;StillImage,image/jpeg,Pescara,Abruzzo,Italy,82.0
Liberty School Cabernet Sauvignon,Hope Family,Cabernet Sauvignon,2020,FALSE,,,,,,,85.5,LibCabSauvCork24, $17.99 ,,,35.5890592,-120.7226154,"Paso Robles, California, United States",LibCabSauvCork24_0.jpg; LibCabSauvCork24_1.jpg; LibCabSauvCork24_2.jpg; LibCabSauvCork24_3.jpg; LibCabSauvCork24_top.jpg; LibCabSauvCork24_base.jpg,Image;StillImage,image/jpeg,Paso Robles,California,United States,85.5
Federalist Cabernet Sauvignon 1,Federalist Wines,Cabernet Sauvignon,2017,FALSE,,,,,,,88,FedCabSauvCork25, $16.99 ,,,38.4601206,-122.4384741,"Central Valley, California, United States",FedCabSauvCork25_0.jpg; FedCabSauvCork25_1.jpg; FedCabSauvCork25_2.jpg; FedCabSauvCork25_3.jpg; FedCabSauvCork25_top.jpg; FedCabSauvCork25_base.jpg,Image;StillImage,image/jpeg,Central Valley,California,United States,88.0
Federalist Cabernet Sauvignon 2,Federalist Wines,Cabernet Sauvignon,2017,FALSE,,,,,,,88,FedCabSauvCork26, $16.99 ,,,38.4601206,-122.4384741,"Central Valley, California, United States",FedCabSauvCork26_0.jpg; FedCabSauvCork26_1.jpg; FedCabSauvCork26_2.jpg; FedCabSauvCork26_3.jpg; FedCabSauvCork26_top.jpg; FedCabSauvCork26_base.jpg,Image;StillImage,image/jpeg,Central Valley,California,United States,88.0
Buglioni Il Bugiardo Valpolicella Ripasso Classico,Cantina Buglioni,Corvina; Corvinone; Rondinella; Croatina; Oseleta,2018,TRUE,,,,,90,92,90,BugBugValRipCork27, $28.99 ,,,45.4962581,10.9155974,"Verona, Veneto, Italy",BugBugValRipCork27_0.jpg; BugBugValRipCork27_1.jpg; BugBugValRipCork27_2.jpg; BugBugValRipCork27_3.jpg; BugBugValRipCork27_top.jpg; BugBugValRipCork27_base.jpg,Image;StillImage,image/jpeg,Verona,Veneto,Italy,90.7
Zaccagnini Montepulciano d'Abruzzo,Cantina Zaccagnini,Montepulciano,2018,FALSE,,,,,89,,87.5,ZacMonteCork28, $18.99 ,,,42.2307078,13.953721,"Pescara, Abruzzo, Italy",ZacMonteCork28_0.jpg; ZacMonteCork28_1.jpg; ZacMonteCork28_2.jpg; ZacMonteCork28_3.jpg; ZacMonteCork28_top.jpg; ZacMonteCork28_base.jpg,Image;StillImage,image/jpeg,Pescara,Abruzzo,Italy,88.3
Unknown Prosecco Cork,Unknown,Glera,2021,FALSE,,,,,,,,UnkProCork29,,,,45.7645167,11.1050469,"Veneto, Italy",UnkProCork29_0.jpg; UnkProCork29_1.jpg; UnkProCork29_2.jpg; UnkProCork29_3.jpg; UnkProCork29_top.jpg; UnkProCork29_base.jpg,Image;StillImage,image/jpeg,,Veneto,Italy,
